City_ID,City,Lat,Lng,Max Temp,Humidity,Cloudiness,Wind Speed,Country,Date
0,papatowai,-46.5619,169.4708,5.86,92,100,12.38,NZ,1696218697
1,whitehorse,60.7161,-135.0538,7.43,77,40,4.63,CA,1696218697
2,utrik,11.2278,169.8474,28.67,78,92,5.84,MH,1696218697
3,sarikei,2.1167,111.5167,30.61,52,79,0.99,MY,1696218697
4,boa vista,2.8197,-60.6733,29.99,58,0,2.57,BR,1696218698
5,smirnykh,49.75,142.8333,13.83,77,92,1.79,RU,1696218698
6,klyuchi,52.2667,79.1667,9.62,61,0,3.74,RU,1696218698
7,tsetserleg,47.475,101.4542,9.03,49,39,5.03,MN,1696218698
8,chabahar,25.2919,60.643,28.72,62,2,1.46,IR,1696218698
9,waitangi,-43.9535,-176.5597,14.34,88,83,3.13,NZ,1696218698
10,port-aux-francais,-49.35,70.2167,1.95,84,97,20.41,TF,1696218699
11,anadyr,64.75,177.4833,4.28,48,0,4.92,RU,1696218699
12,okha,53.5739,142.9478,8.95,95,100,9.43,RU,1696218699
13,cannonvale,-20.2833,148.7,22.66,68,14,6.23,AU,1696218699
14,edinburgh of the seven seas,-37.0676,-12.3116,9.75,66,97,10.29,SH,1696218699
15,keflavik,64.0049,-22.5624,8.95,76,0,7.72,IS,1696218699
16,vorgashor,67.5833,63.95,8.95,97,100,6.64,RU,1696218700
17,shantou,23.3681,116.7148,30.92,58,20,3.0,CN,1696218700
18,banda aceh,5.5577,95.3222,30.22,66,66,4.69,ID,1696218700
19,adamstown,-25.066,-130.1015,20.51,79,38,11.13,PN,1696218700
20,cotonou,6.3654,2.4183,26.99,83,40,5.66,BJ,1696218700
21,magadan,59.5667,150.8,12.52,69,38,0.22,RU,1696218700
22,barranca,-10.75,-77.7667,18.36,87,84,3.8,PE,1696218701
23,ust-nera,64.5667,143.2,1.79,56,29,2.68,RU,1696218701
24,puerto ayora,-0.7393,-90.3518,21.97,100,95,1.34,EC,1696218701
25,grytviken,-54.2811,-36.5092,2.23,95,33,4.72,GS,1696218456
26,polyarnyy,69.1989,33.4478,3.32,78,100,7.87,RU,1696218701
27,punta arenas,-53.15,-70.9167,1.06,86,20,6.69,CL,1696218701
28,montepuez,-13.1256,38.9997,19.99,83,0,1.31,MZ,1696218702
29,sao miguel do araguaia,-13.275,-50.1628,30.34,32,59,1.16,BR,1696218702
30,isangel,-19.55,169.2667,27.06,50,75,6.17,VU,1696218702
31,albany,42.6001,-73.9662,17.73,91,5,2.09,US,1696218601
32,saumur,47.3333,-0.25,14.91,94,67,1.71,FR,1696218702
33,yuzhno-kurilsk,44.0306,145.8556,17.99,57,4,5.13,RU,1696218703
34,port mathurin,-19.6833,63.4167,23.13,80,10,6.75,MU,1696218703
35,thinadhoo,0.5333,72.9333,27.64,77,11,6.08,MV,1696218703
36,bredasdorp,-34.5322,20.0403,9.92,80,2,2.28,ZA,1696218703
37,ushuaia,-54.8,-68.3,0.81,80,0,8.23,AR,1696218423
38,ilulissat,69.2167,-51.1,-1.99,64,1,3.09,GL,1696218703
39,lebu,-37.6167,-73.65,8.04,84,87,1.19,CL,1696218704
40,aasiaat,68.7098,-52.8699,-8.02,85,18,3.94,GL,1696218704
41,port elizabeth,-33.918,25.5701,15.16,81,0,5.66,ZA,1696218704
42,kalmunai,7.4167,81.8167,28.84,70,95,6.05,LK,1696218704
43,vilyuchinsk,52.9306,158.4028,11.15,92,100,7.58,RU,1696218704
44,murakami,38.2333,139.4833,23.94,64,37,6.61,JP,1696218704
45,bethel,41.3712,-73.414,18.68,86,0,2.06,US,1696218704
46,yellowknife,62.456,-114.3525,8.56,100,100,1.34,CA,1696218705
47,beichengqu,40.4394,113.1536,18.75,32,90,4.03,CN,1696218705
48,suixi,33.8907,116.7747,20.16,65,100,2.07,CN,1696218705
49,pasni,25.2631,63.471,28.75,47,0,3.94,PK,1696218705
50,hawaiian paradise park,19.5933,-154.9731,26.73,81,100,3.09,US,1696218705
51,bilibino,68.0546,166.4372,-1.14,95,100,1.51,RU,1696218705
52,al mijlad,11.0333,27.7333,26.49,69,92,4.16,SD,1696218705
53,mandalgovi,45.7625,106.2708,14.11,28,12,6.31,MN,1696218706
54,hermanus,-34.4187,19.2345,14.02,60,0,4.29,ZA,1696218706
55,gadzhiyevo,69.2551,33.3362,3.11,76,99,7.34,RU,1696218706
56,jamestown,42.097,-79.2353,17.8,89,20,2.06,US,1696218496
57,georgetown,5.4112,100.3354,32.19,76,20,3.6,MY,1696218706
58,ancud,-41.8697,-73.8203,6.16,90,98,1.37,CL,1696218706
59,atafu village,-8.5421,-172.5159,28.93,70,28,3.73,TK,1696218706
60,chimbote,-9.0853,-78.5783,18.24,89,43,3.38,PE,1696218408
61,tura,25.5198,90.2201,27.74,81,74,2.06,IN,1696218707
62,cedeira,43.6797,-8.0209,20.03,77,72,2.15,ES,1696218707
63,eyl,7.9803,49.8164,26.81,78,23,5.99,SO,1696218707
64,sur,22.5667,59.5289,31.12,57,47,3.74,OM,1696218707
65,jalapa,19.5333,-96.9167,17.76,95,71,1.2,MX,1696218708
66,puerto natales,-51.7236,-72.4875,0.76,87,96,2.24,CL,1696218708
67,kodiak,57.79,-152.4072,11.73,66,75,0.0,US,1696218708
68,vadso,70.0744,29.7487,1.49,80,0,4.12,NO,1696218709
69,ironwood,46.4547,-90.171,24.45,57,0,5.66,US,1696218709
70,turtas,58.9417,69.1325,10.04,79,36,5.17,RU,1696218709
71,iqaluit,63.7506,-68.5145,2.85,93,100,3.09,CA,1696218709
72,nuuk,64.1835,-51.7216,1.6,86,100,2.06,GL,1696218709
73,tvoroyri,61.5556,-6.8111,10.48,88,100,11.33,FO,1696218709
74,aral,40.5156,81.2636,21.11,22,8,1.02,CN,1696218709
75,constantia,44.1833,28.65,15.39,54,47,8.67,RO,1696218646
76,sitka,57.0531,-135.33,11.94,82,100,4.12,US,1696218710
77,saint-leu,-21.15,55.2833,24.98,56,0,2.05,RE,1696218710
78,stanley,54.868,-1.6985,12.1,95,0,0.51,GB,1696218710
79,tralee,52.2704,-9.7026,10.66,96,100,2.3,IE,1696218638
80,badger,64.8,-147.5333,5.76,85,40,2.57,US,1696218710
81,west island,-12.1568,96.8225,27.99,65,75,6.17,CC,1696218710
82,akureyri,65.6835,-18.0878,5.96,81,100,4.12,IS,1696218710
83,geraldton,-28.7667,114.6,19.23,48,100,8.75,AU,1696218567
84,lihue,21.9789,-159.3672,29.58,77,40,6.69,US,1696218711
85,umm kaddadah,13.6017,26.6876,29.86,46,99,5.37,SD,1696218711
86,vorkuta,67.5,64.0,8.96,98,100,6.38,RU,1696218711
87,borogontsy,62.6683,131.1683,3.49,85,100,1.79,RU,1696218711
88,dawei,14.0833,98.2,26.19,90,100,1.11,MM,1696218711
89,bassar,9.25,0.7833,21.75,96,95,1.48,TG,1696218712
90,prado,-17.3411,-39.2208,21.97,82,50,3.12,BR,1696218712
91,gebeit,21.0667,36.3167,26.74,47,5,2.09,SD,1696218712
92,margaret river,-33.95,115.0667,13.39,49,89,10.26,AU,1696218712
93,arteche,12.2645,125.4048,32.07,61,99,3.45,PH,1696218712
94,midvagur,62.0511,-7.1939,10.46,93,75,5.14,FO,1696218712
95,blackmans bay,-43.0167,147.3167,21.52,32,63,5.05,AU,1696218712
96,longyearbyen,78.2186,15.6401,-3.09,63,75,9.26,SJ,1696218490
97,zakynthos,37.7914,20.8953,18.13,69,1,1.62,GR,1696218713
98,labrador city,52.9463,-66.9114,4.95,87,0,3.09,CA,1696218713
99,tarauaca,-8.1614,-70.7656,22.7,98,100,0.81,BR,1696218713
100,mirpur khas,25.5251,69.0159,33.47,9,40,1.84,PK,1696218713
101,thompson,55.7435,-97.8558,3.09,93,100,3.6,CA,1696218713
102,zhenlai,45.8495,123.2973,19.07,33,1,1.32,CN,1696218714
103,remire-montjoly,4.9167,-52.2667,27.02,83,20,1.03,GF,1696218714
104,paratinga,-12.6906,-43.1842,26.64,49,39,2.73,BR,1696218714
105,ingeniero jacobacci,-41.3427,-69.5448,7.57,51,100,5.66,AR,1696218714
106,tiksi,71.6872,128.8694,-4.57,75,13,0.85,RU,1696218714
107,malango,-2.9627,119.9001,30.24,43,99,2.32,ID,1696218714
108,boca do acre,-8.7522,-67.3978,23.83,94,86,1.17,BR,1696218715
109,petropavlovsk-kamchatsky,53.0452,158.6483,10.33,88,100,7.0,RU,1696218659
110,touros,-5.1989,-35.4608,24.11,78,17,5.27,BR,1696218715
111,salym,60.0625,71.4789,9.38,81,21,5.03,RU,1696218715
112,tazacorte,28.629,-17.9293,22.54,83,20,4.12,ES,1696218715
113,olonkinbyen,70.9221,-8.7187,-0.02,88,100,7.85,SJ,1696218715
114,hilo,19.7297,-155.09,26.85,80,100,3.09,US,1696218715
115,iskateley,67.6803,53.1512,10.57,96,89,3.58,RU,1696218716
116,isafjordur,66.0755,-23.124,4.84,95,100,11.06,IS,1696218716
117,mbandjok,4.45,11.9,21.24,98,100,1.62,CM,1696218716
118,lagoa,39.05,-27.9833,19.27,66,95,4.99,PT,1696218716
119,invercargill,-46.4,168.35,6.68,87,100,6.71,NZ,1696218716
120,udachny,66.4167,112.4,-0.86,92,100,7.56,RU,1696218716
121,shimoda,34.6667,138.95,25.2,66,54,5.53,JP,1696218717
122,wladyslawowo,54.7909,18.4009,13.85,90,19,3.5,PL,1696218717
123,ha'il,27.5219,41.6907,26.01,21,0,4.12,SA,1696218717
124,san jeronimo de juarez,17.1333,-100.4667,27.16,85,98,1.67,MX,1696218717
125,moultrie,31.1799,-83.7891,22.12,78,0,1.54,US,1696218717
126,takoradi,4.8845,-1.7554,24.43,92,22,2.67,GH,1696218717
127,xinyang,32.1228,114.0656,17.04,93,100,3.25,CN,1696218717
128,crane,31.3974,-102.3501,24.63,63,8,7.9,US,1696218718
129,san javier,37.8063,-0.8374,20.55,68,0,2.68,ES,1696218718
130,katsuura,35.1333,140.3,23.11,60,98,7.48,JP,1696218718
131,avarua,-21.2078,-159.775,22.03,88,75,5.14,CK,1696218718
132,coquimbo,-29.9533,-71.3436,13.85,76,100,1.03,CL,1696218718
133,noosa heads,-26.3833,153.15,27.41,57,0,5.09,AU,1696218719
134,college,64.8569,-147.8028,5.81,85,100,2.57,US,1696218698
135,rio claro,-22.4114,-47.5614,20.15,94,53,0.4,BR,1696218719
136,fisterra,42.9049,-9.2629,16.53,89,35,5.38,ES,1696218719
137,muroto-misakicho,33.2833,134.15,23.65,57,100,2.38,JP,1696218719
138,ta`u,-14.2336,-169.5144,26.61,79,51,8.98,AS,1696218719
139,mana,5.6592,-53.7767,26.59,84,74,6.1,GF,1696218720
140,wailua homesteads,22.0669,-159.378,29.24,82,40,6.69,US,1696218720
141,weno,7.4515,151.8468,30.97,79,75,1.54,FM,1696218720
142,nadym,65.5333,72.5167,7.96,94,100,7.25,RU,1696218720
143,shorkot,31.9099,70.8774,30.32,15,0,1.6,PK,1696218720
144,happy valley-goose bay,53.3168,-60.3315,9.17,66,75,1.03,CA,1696218720
145,freeport,40.6576,-73.5832,21.1,81,0,3.6,US,1696218721
146,port augusta,-32.5,137.7667,36.7,14,19,9.78,AU,1696218453
147,taitung city,22.7583,121.1444,32.15,66,40,6.17,TW,1696218721
148,afaahiti,-17.75,-149.2833,26.93,87,13,6.85,PF,1696218721
149,kapuskasing,49.4169,-82.4331,17.05,88,100,3.09,CA,1696218601
150,saint-joseph,-21.3667,55.6167,24.71,68,0,0.22,RE,1696218721
151,jinghong,21.991,100.7341,28.97,65,57,1.64,CN,1696218721
152,san patricio,28.017,-97.5169,27.91,80,4,4.78,US,1696218722
153,bardai,11.65,7.2333,20.75,92,94,3.19,NG,1696218722
154,seminole,28.7086,-81.2081,25.61,90,75,3.6,US,1696218722
155,port alfred,-33.5906,26.891,12.32,87,2,1.79,ZA,1696218722
156,choibalsan,48.0667,114.5,16.02,27,100,4.44,MN,1696218722
157,lazaro cardenas,17.9583,-102.2,27.67,87,81,1.11,MX,1696218723
158,sao jose da coroa grande,-8.8978,-35.1478,22.68,79,3,1.33,BR,1696218723
159,tyumen,57.1522,65.5272,9.08,100,100,7.15,RU,1696218723
160,cabo san lucas,22.8909,-109.9124,30.61,73,0,6.69,MX,1696218308
161,eydhafushi,5.1033,73.0708,27.56,76,100,4.88,MV,1696218723
162,saipan,15.1355,145.701,30.39,84,40,6.69,MP,1696218724
163,mbanza-ngungu,-5.25,14.8667,21.39,87,95,1.32,CD,1696218724
164,tucuma,-0.1833,-50.05,26.21,82,27,3.34,BR,1696218724
165,nagqu,31.5,92.0,7.15,73,100,4.13,CN,1696218724
166,pesqueira,-8.3578,-36.6964,17.11,96,6,1.69,BR,1696218724
167,ulsan,35.5372,129.3167,22.99,33,76,2.36,KR,1696218724
168,hami,42.8,93.45,20.72,29,0,3.37,CN,1696218725
169,labytnangi,66.6572,66.4183,7.81,97,100,4.97,RU,1696218725
170,urangan,-25.3,152.9,23.83,55,0,2.72,AU,1696218725
171,ghormach,35.7306,63.7826,20.91,20,0,1.79,AF,1696218725
172,saldanha,-33.0117,17.9442,14.29,58,0,3.28,ZA,1696218725
173,talnakh,69.4865,88.3972,-10.44,94,87,3.93,RU,1696218725
174,muang khong,14.1167,105.85,30.75,72,74,0.37,LA,1696218726
175,necocli,8.4234,-76.786,25.82,90,100,3.89,CO,1696218726
176,huatabampo,26.8333,-109.6333,31.29,70,100,0.68,MX,1696218726
177,kingston,17.997,-76.7936,28.53,85,20,3.6,JM,1696218431
178,cururupu,-1.8283,-44.8683,25.57,83,8,2.67,BR,1696218726
179,omutninsk,58.67,52.1932,10.88,93,100,3.33,RU,1696218726
180,bahir dar,11.5936,37.3908,15.58,86,12,1.71,ET,1696218727
181,pemangkat,1.1667,108.9667,29.99,64,99,2.77,ID,1696218727
182,montalvo,-1.8,-79.3333,24.79,80,99,0.8,EC,1696218727
183,bam,29.106,58.357,26.58,17,0,0.52,IR,1696218727
184,zouerate,22.7187,-12.4521,28.53,19,63,3.92,MR,1696218727
185,selfoss,63.9331,-20.9971,7.8,75,95,5.1,IS,1696218727
186,mejit,10.2753,170.8646,28.4,77,88,5.5,MH,1696218728
187,xinyuan,37.3,99.0,12.04,27,72,2.68,CN,1696218728
188,niamey,13.5137,2.1098,27.16,83,0,1.54,NE,1696218728
189,ola,59.5833,151.2833,12.86,67,31,0.59,RU,1696218728
190,cockburn town,21.4612,-71.1419,28.63,74,81,7.1,TC,1696218728
191,vila franca do campo,37.7167,-25.4333,20.23,99,79,3.72,PT,1696218728
192,piacabucu,-10.4056,-36.4344,21.56,80,5,2.56,BR,1696218728
193,portland,45.5234,-122.6762,16.99,65,0,2.57,US,1696218218
194,inari,68.906,27.0288,0.11,90,29,0.88,FI,1696218729
195,sao joao da barra,-21.6403,-41.0511,21.03,94,100,5.55,BR,1696218729
196,dalandzadgad,43.5708,104.425,18.13,19,2,9.23,MN,1696218729
197,rostovka,55.3842,71.8891,10.81,66,3,3.61,RU,1696218729
198,luderitz,-26.6481,15.1594,15.17,78,0,2.67,NA,1696218730
199,ribeira grande,38.5167,-28.7,19.32,74,99,1.79,PT,1696218730
200,pastavy,55.1168,26.8326,7.25,97,11,2.76,BY,1696218730
201,kargasok,59.0556,80.8572,7.11,80,100,5.93,RU,1696218730
202,susuman,62.7833,148.1667,1.1,73,16,1.34,RU,1696218730
203,ilhabela,-23.7781,-45.3581,20.59,93,100,2.62,BR,1696218731
204,baidoa,3.1138,43.6498,22.55,84,62,6.28,SO,1696218731
205,alice springs,-23.7,133.8833,36.75,12,18,7.72,AU,1696218602
206,honefoss,60.168,10.2565,13.29,92,93,0.55,NO,1696218731
207,ust'-ilimsk,58.0006,102.6619,-1.42,83,94,4.02,RU,1696218731
208,shingu,33.7333,135.9833,24.38,48,100,1.24,JP,1696218731
209,akjoujt,19.6969,-14.4164,30.37,18,80,4.46,MR,1696218731
210,dukhan,25.4297,50.7858,31.24,47,0,5.31,QA,1696218732
211,pitanga,-24.7572,-51.7614,15.5,95,42,1.01,BR,1696218732
212,val-d'or,48.1002,-77.7828,10.05,81,0,1.03,CA,1696218732
213,saacow,1.6279,42.4407,24.3,79,18,5.43,SO,1696218732
214,tofol,5.3248,163.0078,31.88,70,75,1.54,FM,1696218733
215,diawara,15.022,-12.5437,29.08,66,100,3.58,SN,1696218733
216,san ignacio rio muerto,27.4167,-110.2333,28.04,65,64,2.37,MX,1696218733
217,gorontalo,0.5412,123.0595,33.32,44,67,4.07,ID,1696218733
218,khash,28.2211,61.2158,21.65,18,0,0.6,IR,1696218733
219,fandriana,-20.2333,47.3833,18.87,59,27,1.38,MG,1696218733
220,colonia,50.9333,6.95,17.46,85,0,1.03,DE,1696218734
221,taksimo,56.3444,114.8794,2.62,90,100,3.58,RU,1696218734
222,banska bystrica,48.5,19.5,9.97,71,46,1.07,SK,1696218734
223,lepsy,46.235,78.9456,17.93,40,57,5.12,KZ,1696218734
224,ambodifotatra,-16.9833,49.85,24.03,94,75,2.06,MG,1696218734
225,presidente medici,-11.1753,-61.9014,28.16,56,82,0.83,BR,1696218734
226,hamilton,39.1834,-84.5333,21.11,82,0,0.45,US,1696218682
227,barakani,-12.1356,44.4317,25.01,77,27,2.95,KM,1696218735
228,tolanaro,-25.0319,46.9987,23.04,60,20,3.09,MG,1696218735
229,axim,4.8699,-2.2405,24.53,91,20,2.57,GH,1696218735
230,colac,-38.3333,143.5833,23.43,33,0,5.73,AU,1696218735
231,roma,43.2128,-75.4557,17.75,93,0,0.0,US,1696218563
232,inyati,-19.6756,28.8469,14.74,79,29,7.17,ZW,1696218736
233,porto,41.1496,-8.611,20.11,71,0,3.6,PT,1696218736
234,pailon,-17.65,-62.75,25.5,63,80,2.1,BO,1696218736
235,sesheke,-17.4759,24.2968,22.95,39,7,3.79,ZM,1696218736
236,port lincoln,-34.7333,135.8667,25.4,38,0,5.2,AU,1696218736
237,dori,14.0354,-0.0345,30.12,57,87,2.24,BF,1696218736
238,lai,9.3952,16.2989,22.67,95,92,0.94,TD,1696218737
239,parscov,45.2833,26.55,13.02,71,87,2.34,RO,1696218737
240,sumenep,-7.0167,113.8667,30.7,52,97,5.35,ID,1696218737
241,haiku-pauwela,20.9219,-156.3051,28.01,67,40,9.77,US,1696218737
242,ad dabbah,18.05,30.95,31.57,19,49,1.53,SD,1696218738
243,santa cruz,-17.8,-63.1667,24.7,61,98,2.06,BO,1696218607
244,howrah,22.5892,88.3103,27.0,94,75,2.57,IN,1696218715
245,roja,57.5,22.8167,10.88,91,12,4.09,LV,1696218738
246,namibe,-15.1961,12.1522,17.26,86,18,1.6,AO,1696218738
247,ipueiras,-7.0333,-40.45,22.06,40,3,2.43,BR,1696218738
248,korla,41.7597,86.1469,21.12,25,0,4.58,CN,1696218738
249,antofagasta,-23.65,-70.4,15.6,85,38,2.73,CL,1696218739
250,chayan,43.0297,69.3772,17.66,32,2,1.81,KZ,1696218739
251,punta del este,-34.9667,-54.95,9.37,86,20,1.34,UY,1696218739
252,tenno,39.9,139.9667,21.56,55,92,9.07,JP,1696218739
253,tabou,4.423,-7.3528,24.55,89,76,3.71,CI,1696218739
254,la passe,45.5549,-0.8967,18.32,64,9,3.89,FR,1696218739
255,la maddalena,41.2142,9.4083,13.03,54,1,1.0,IT,1696218740
256,qaqortoq,60.7167,-46.0333,1.93,77,100,1.43,GL,1696218740
257,guerrero negro,27.9769,-114.0611,19.81,80,24,7.02,MX,1696218740
258,lorengau,-2.0226,147.2712,29.81,69,70,2.29,PG,1696218740
259,lautoka,-17.6167,177.4667,26.92,57,40,6.17,FJ,1696218740
260,caister-on-sea,52.6481,1.7265,16.88,92,99,3.03,GB,1696218740
261,codrington,-38.2667,141.9667,24.0,42,0,7.56,AU,1696218740
262,ketchikan,55.3422,-131.6461,11.26,93,100,6.17,US,1696218741
263,flin flon,54.7682,-101.865,4.03,93,100,2.26,CA,1696218741
264,pathein,16.7833,94.7333,25.55,94,100,2.63,MM,1696218741
265,myitkyina,25.3833,97.4,30.11,70,77,0.5,MM,1696218741
266,smithers,54.7804,-127.1743,8.18,93,100,0.0,CA,1696218741
267,yur'yevets,57.3201,43.1041,9.32,89,100,4.2,RU,1696218741
268,sint michiel liber,12.15,-68.9833,29.9,79,20,2.57,CW,1696218742
269,arenapolis,-14.4503,-56.8461,25.35,79,99,0.72,BR,1696218742
270,callao,-12.0667,-77.15,19.84,77,75,6.17,PE,1696218742
271,kilindoni,-7.9139,39.6668,25.06,76,30,3.71,TZ,1696218742
272,usak,38.5,29.4167,13.83,80,36,1.54,TR,1696218742
273,pauini,-7.7136,-66.9764,24.6,90,95,1.1,BR,1696218742
274,colares,38.7992,-9.4469,21.29,80,0,3.58,PT,1696218662
275,linxia chengguanzhen,35.6003,103.2064,12.77,86,100,1.12,CN,1696218743
276,fale old settlement,-9.3852,-171.2468,27.37,80,23,5.7,TK,1696218743
277,enewetak,11.3474,162.3373,28.92,75,94,4.32,MH,1696218743
278,dwarka,22.2394,68.9678,28.18,61,69,3.1,IN,1696218743
279,tallulah,32.4085,-91.1868,25.0,53,20,1.54,US,1696218743
280,bikenibeu village,1.3673,173.1241,31.98,66,20,2.06,KI,1696218743
281,ithaca,42.4406,-76.4966,17.3,94,0,0.0,US,1696218744
282,tomatlan,19.9333,-105.25,25.87,96,63,0.76,MX,1696218744
283,remiremont,48.0175,6.5882,9.1,55,95,1.45,FR,1696218744
284,hotan,37.0997,79.9269,20.59,24,7,1.84,CN,1696218744
285,laguna,38.421,-121.4238,20.17,58,0,0.0,US,1696218744
286,caibarien,22.5206,-79.4669,26.62,82,69,4.54,CU,1696218744
287,kirensk,57.7853,108.1119,2.16,62,100,4.96,RU,1696218745
288,novofedorivka,46.1713,32.3178,15.05,68,34,8.14,UA,1696218745
289,luganville,-15.5333,167.1667,25.62,78,99,7.31,VU,1696218745
290,bazarak,35.3129,69.5152,15.99,34,13,1.68,AF,1696218745
291,novyy chirkey,43.162,47.0559,20.35,73,33,2.86,RU,1696218745
292,chibougamau,49.9168,-74.3659,10.68,69,6,1.86,CA,1696218746
293,palmer,42.1584,-72.3287,17.88,83,0,0.0,US,1696218746
294,sao felix do xingu,-6.6447,-51.995,25.64,54,75,0.56,BR,1696218746
295,usogorsk,63.4106,48.6872,10.37,92,100,4.95,RU,1696218746
296,la tuque,47.4334,-72.7824,8.14,93,26,0.51,CA,1696218746
297,fort wellington,6.4,-57.6,27.54,82,95,5.14,GY,1696218746
298,woods creek,47.8787,-121.8985,13.6,82,81,0.45,US,1696218747
299,juneau,58.3019,-134.4197,10.68,100,100,5.14,US,1696218528
300,tual,-5.6667,132.75,26.47,85,64,5.29,ID,1696218747
301,manismata,-2.4667,111.0333,34.18,36,100,2.75,ID,1696218747
302,yuza,39.0,139.9167,23.03,71,42,6.46,JP,1696218747
303,revda,56.801,59.9303,10.35,71,40,5.22,RU,1696218748
304,al bawiti,28.3492,28.8659,22.22,67,88,3.15,EG,1696218748
305,la paz,-16.5,-68.15,10.32,79,75,3.09,BO,1696218748
306,umarkot,25.3616,69.7362,31.92,12,99,2.1,PK,1696218749
307,kapit,2.0167,112.9333,33.6,50,99,0.27,MY,1696218749
308,bandundu,-3.3167,17.3667,23.65,86,16,0.78,CD,1696218749
309,ostersund,63.1792,14.6357,5.25,93,75,4.63,SE,1696218749
310,bamboo flat,11.7,92.7167,26.05,89,100,2.57,IN,1696218749
311,hasaki,35.7333,140.8333,25.22,53,92,7.95,JP,1696218750
312,sao gabriel da cachoeira,-0.1303,-67.0892,24.59,85,86,0.9,BR,1696218750
313,el porvenir,13.7617,-87.3458,26.63,90,77,2.22,HN,1696218750
314,al jawf,29.5,38.75,21.8,63,20,4.49,SA,1696218750
315,lompoc,34.6391,-120.4579,15.56,84,0,3.58,US,1696218750
316,narrabri,-30.3167,149.7833,33.62,25,2,1.79,AU,1696218751
317,acapulco de juarez,16.8634,-99.8901,27.77,86,93,2.1,MX,1696218751
318,kone,-21.0595,164.8658,24.7,53,40,4.59,NC,1696218751
319,charters towers,-20.1,146.2667,30.75,28,41,5.4,AU,1696218751
320,corabia,43.7833,24.5,15.32,50,91,4.09,RO,1696218751
321,sinabang,2.4803,96.3801,27.17,81,100,5.1,ID,1696218751
322,soio,-6.1349,12.3689,23.88,88,94,2.23,AO,1696218752
323,chauk,20.8833,94.8167,26.15,87,98,5.34,MM,1696218752
324,undurkhaan,47.3194,110.6556,14.15,27,100,1.45,MN,1696218752
325,east london,-33.0153,27.9116,13.52,76,0,3.09,ZA,1696218750
326,altay,47.8667,88.1167,12.43,41,22,1.34,CN,1696218752
327,flying fish cove,-10.4217,105.6791,26.82,69,40,7.2,CX,1696218752
328,pierre,44.3683,-100.351,25.48,57,0,4.12,US,1696218583
329,walvis bay,-22.9575,14.5053,11.72,93,100,3.6,NA,1696218753
330,cidreira,-30.1811,-50.2056,12.35,73,0,1.83,BR,1696218590
331,kovernino,57.1253,43.8142,9.01,93,100,2.56,RU,1696218753
332,nova sintra,14.8667,-24.7167,23.49,79,95,4.86,CV,1696218753
333,arraial do cabo,-22.9661,-42.0278,20.99,97,99,2.01,BR,1696218753
334,san pedro pochutla,15.7333,-96.4667,24.93,94,96,3.3,MX,1696218754
335,'ain el melh,34.8415,4.1638,18.23,45,0,1.33,DZ,1696218754
336,yelizovo,53.1873,158.3805,11.08,87,100,7.15,RU,1696218754
337,beau vallon,-20.4189,57.6953,24.56,83,75,5.14,MU,1696218754
338,boende,-0.2167,20.8667,21.95,97,28,0.55,CD,1696218754
339,hede,33.7681,120.2517,22.92,50,98,3.3,CN,1696218754
340,natal,-5.795,-35.2094,23.36,94,0,2.06,BR,1696218755
341,savino,56.5929,41.2181,10.83,93,100,2.23,RU,1696218755
342,nova xavantina,-14.6667,-52.35,29.2,43,83,0.8,BR,1696218755
343,talcahuano,-36.7167,-73.1167,10.82,62,100,3.09,CL,1696218616
344,holualoa,19.6228,-155.9522,26.91,78,75,5.66,US,1696218755
345,palangkaraya,-2.2,113.8333,37.07,24,54,1.85,ID,1696218755
346,lagunas,-5.2269,-75.6753,25.16,74,100,0.34,PE,1696218756
347,queenstown,-31.8976,26.8753,6.47,86,13,0.82,ZA,1696218725
348,island harbour,50.724,-1.2758,17.21,95,100,0.45,GB,1696218756
349,borgarnes,64.5383,-21.9206,9.03,83,97,4.09,IS,1696218756
350,st. john's,47.5649,-52.7093,12.76,90,40,7.72,CA,1696218756
351,praia da vitoria,38.7333,-27.0667,18.75,88,20,3.67,PT,1696218756
352,rongelap,11.1635,166.8941,28.7,77,58,5.89,MH,1696218756
353,nguigmi,14.2495,13.1092,27.51,51,100,4.67,NE,1696218757
354,puerto baquerizo moreno,-0.9,-89.6,22.61,89,98,4.69,EC,1696218747
355,tocopilla,-22.092,-70.1979,17.76,77,12,2.83,CL,1696218714
356,arbatache,36.6377,3.3713,15.18,77,20,0.0,DZ,1696218757
357,robertsport,6.7533,-11.3686,26.13,84,98,3.03,LR,1696218758
358,broken hill,-31.95,141.4333,35.17,13,68,14.01,AU,1696218758
359,kotovo,50.3211,44.8012,12.95,55,100,2.53,RU,1696218554
360,la ronge,55.1001,-105.2842,8.14,76,100,1.54,CA,1696218759
361,springs,-26.25,28.4,11.43,94,0,4.1,ZA,1696218759
362,ugoofaaru,5.6667,73.0,27.48,76,100,5.89,MV,1696218759
363,aleg,17.0481,-13.9209,31.66,17,17,1.72,MR,1696218759
364,pacific grove,36.6177,-121.9166,15.06,87,40,2.06,US,1696218759
365,wurno,13.2878,5.4233,26.38,65,66,3.07,NG,1696218759
366,trincomalee,8.5711,81.2335,30.08,63,90,8.16,LK,1696218760
367,ain temouchent,35.2975,-1.1404,17.02,58,0,1.02,DZ,1696218760
368,ziniare,12.5822,-1.2983,26.91,70,95,2.46,BF,1696218760
369,okhotsk,59.3833,143.3,9.51,68,75,1.29,RU,1696218760
370,citra,29.4119,-82.1098,23.35,92,87,3.86,US,1696218760
371,dzhetygara,52.1908,61.2006,11.94,59,96,2.23,KZ,1696218760
372,kirakira,-10.4544,161.9205,28.06,81,72,6.25,SB,1696218760
373,hadibu,12.65,54.0333,26.9,79,21,2.13,YE,1696218761
374,kuragino,53.8975,92.6725,7.09,70,87,1.87,RU,1696218761
375,la gomera,14.0833,-91.05,25.46,89,60,1.87,GT,1696218761
376,taro,-8.3862,115.28,26.0,52,81,2.58,ID,1696218761
377,new norfolk,-42.7826,147.0587,22.18,18,30,4.24,AU,1696218761
378,kimberley,-28.7323,24.7623,10.83,76,0,4.12,ZA,1696218762
379,tongchuanshi,35.0806,109.0897,14.63,77,99,0.92,CN,1696218762
380,kohlu,29.8962,69.252,23.81,10,0,1.47,PK,1696218762
381,yasnogorsk,54.4803,37.6975,11.35,80,100,2.32,RU,1696218762
382,wagar,16.1525,36.2032,29.0,35,0,3.69,SD,1696218762
383,san antonio de pale,-1.4014,5.6325,25.08,84,90,4.78,GQ,1696218762
384,chonchi,-42.6128,-73.8092,5.07,98,83,0.64,CL,1696218762
385,jouy-en-josas,48.7591,2.1697,16.58,87,0,0.51,FR,1696218763
386,khandyga,62.6667,135.6,7.87,82,99,1.92,RU,1696218763
387,susangerd,31.5608,48.1831,29.67,23,42,4.1,IR,1696218763
388,umba,66.6871,34.3429,6.89,82,83,6.26,RU,1696218763
389,ryotsu-minato,38.0833,138.4333,21.38,52,67,6.0,JP,1696218763
390,atherton,53.5237,-2.4935,13.75,96,99,1.84,GB,1696218764
391,carnarvon,-24.8667,113.6333,21.96,58,59,7.66,AU,1696218764
392,guarapari,-20.6667,-40.4975,22.16,93,100,4.32,BR,1696218764
393,dzhangala,49.2167,50.3333,14.61,55,95,2.82,KZ,1696218764
394,port saint john's,-31.6229,29.5448,15.85,73,45,5.17,ZA,1696218764
395,as sulayyil,20.4607,45.5779,24.14,20,0,2.67,SA,1696218764
396,taltal,-25.4,-70.4833,15.18,80,25,0.8,CL,1696218765
397,badagry,6.4167,2.8833,25.17,90,78,2.95,NG,1696218765
398,twon-brass,4.3151,6.2418,26.2,85,83,4.28,NG,1696218765
399,blackwater,-23.5833,148.8833,28.72,38,0,5.23,AU,1696218765
400,taiyuan,37.8694,112.5603,15.92,51,0,2.0,CN,1696218765
401,kutoarjo,-7.7169,109.9128,31.2,48,22,5.53,ID,1696218765
402,chukhloma,58.7525,42.6825,7.78,96,27,3.59,RU,1696218766
403,norfolk county,42.1668,-71.2495,15.96,93,1,1.75,US,1696218766
404,ebon,4.582,168.6964,29.33,73,48,3.14,MH,1696218766
405,sirvintos,55.05,24.95,9.2,97,18,2.6,LT,1696218766
406,uelzen,52.9667,10.5667,16.32,92,82,2.53,DE,1696218766
407,antonio enes,-16.2325,39.9086,22.64,83,4,1.43,MZ,1696218766
408,kolpny,52.2282,37.0368,10.45,78,100,3.06,RU,1696218767
409,agios nikolaos,35.1914,25.7133,24.31,47,0,9.02,GR,1696218767
410,monrovia,6.3005,-10.7969,24.87,89,100,3.02,LR,1696218683
411,kajiado,-1.8524,36.7768,15.98,83,84,2.67,KE,1696218767
412,uporovo,56.3109,66.2693,10.74,75,7,5.12,RU,1696218767
413,mount gambier,-37.8333,140.7667,25.76,33,0,5.56,AU,1696218767
414,qamdo,31.1667,97.2333,13.26,41,44,1.8,CN,1696218768
415,santiago de veraguas,8.1,-80.9833,24.22,91,100,1.79,PA,1696218768
416,grande prairie,55.1667,-118.8027,9.1,87,100,1.54,CA,1696218768
417,north branch,45.5113,-92.9802,26.15,69,40,4.83,US,1696218768
418,santa elena de uairen,4.6167,-61.1333,22.31,54,80,0.51,VE,1696218768
419,el abiodh sidi cheikh,32.893,0.5484,18.48,45,0,1.12,DZ,1696218768
420,kailua-kona,19.6406,-155.9956,28.98,78,75,5.66,US,1696218769
421,porto cristo,39.5395,3.333,21.29,78,4,1.86,ES,1696218769
422,aldan,58.6031,125.3894,9.0,45,92,0.89,RU,1696218769
423,galle,6.0367,80.217,27.36,79,81,3.11,LK,1696218543
424,hirara,24.8,125.2833,30.15,74,75,10.8,JP,1696218770
425,bukama,-9.2,25.85,22.57,79,35,0.5,CD,1696218770
426,changli,39.7042,119.1506,24.96,30,84,5.06,CN,1696218770
427,labasa,-16.4167,179.3833,25.64,59,91,6.12,FJ,1696218770
428,saint-denis,48.9167,2.3333,17.28,86,0,1.54,FR,1696218770
429,tazovsky,67.4667,78.7,1.17,98,100,7.98,RU,1696218770
430,san julian,21.0167,-102.1667,19.02,48,97,1.4,MX,1696218771
431,maebaru-chuo,33.55,130.2,26.9,49,73,6.4,JP,1696218771
432,ratchaburi,13.5833,99.5333,31.64,64,82,2.68,TH,1696218771
433,kavaratti,10.5669,72.642,27.84,79,100,4.8,IN,1696218771
434,upper dir,35.2058,71.8756,21.57,35,21,1.07,PK,1696218771
435,leava,-14.3,-178.1667,25.96,79,89,11.12,WF,1696218771
436,carauari,-4.8828,-66.8958,25.54,78,83,1.06,BR,1696218771
437,margate,51.3813,1.3862,16.06,94,98,0.45,GB,1696218772
438,bogale,16.2833,95.4,25.19,95,100,2.83,MM,1696218772
439,tshikapa,-6.4167,20.8,22.16,94,96,0.32,CD,1696218772
440,pionerskiy,54.9508,20.2275,11.75,79,5,4.96,RU,1696218772
441,kidal,18.4411,1.4078,30.79,27,58,4.59,ML,1696218772
442,kolonia town,6.964,158.206,31.06,74,100,3.09,FM,1696218772
443,freetown,8.484,-13.2299,25.83,84,100,1.94,SL,1696218773
444,barra de santo antonio,-9.4047,-35.5072,20.6,80,4,1.99,BR,1696218773
445,ulundi,-28.3352,31.4162,13.1,84,100,0.61,ZA,1696218773
446,tongliao,43.6125,122.2653,24.06,17,22,3.51,CN,1696218773
447,sao miguel do guama,-1.6267,-47.4833,22.59,95,21,1.48,BR,1696218773
448,colachel,8.1667,77.25,27.45,82,97,6.03,IN,1696218774
449,port sudan,19.6175,37.2164,28.92,71,0,2.35,SD,1696218774
450,howard springs,-12.497,131.047,31.95,33,9,3.14,AU,1696218774
451,san luis de la loma,17.2706,-100.8939,26.92,83,100,1.95,MX,1696218774
452,paracuru,-3.41,-39.0306,27.28,84,40,4.84,BR,1696218774
453,tisul',55.7611,88.3122,5.37,49,98,4.42,RU,1696218775
454,vedi,39.9142,44.7222,13.66,73,100,0.43,AM,1696218775
455,nar'yan-mar,67.6713,53.087,10.62,96,89,3.58,RU,1696218775
456,saudarkrokur,65.7461,-19.6394,5.51,90,100,4.53,IS,1696218775
457,tarawa,1.419,172.984,32.05,66,20,2.06,KI,1696218775
458,marsh harbour,26.5412,-77.0636,27.41,75,91,7.31,BS,1696218775
459,oum hadjer,13.2954,19.6966,27.69,55,89,2.1,TD,1696218776
460,felipe carrillo puerto,19.5833,-88.05,24.55,96,98,0.69,MX,1696218776
461,rubtsovsk,51.5,81.25,9.46,63,0,5.26,RU,1696218776
462,caleta de carquin,-11.0925,-77.6267,18.87,87,65,5.15,PE,1696218776
463,kedrovyy,56.1667,91.8167,1.23,56,100,3.8,RU,1696218776
464,bubaque,11.2833,-15.8333,27.79,83,93,3.69,GW,1696218777
465,harstad,68.799,16.5293,5.45,95,100,1.34,NO,1696218777
466,carbonear,47.7332,-53.2148,13.4,90,5,4.29,CA,1696218777
467,perryville,37.7242,-89.8612,20.67,88,0,0.0,US,1696218765
468,troitsko-pechorsk,62.7084,56.1964,11.5,83,99,5.36,RU,1696218777
469,maintirano,-18.0667,44.0167,26.35,75,1,4.78,MG,1696218778
470,selkirk,50.1436,-96.8845,19.04,92,51,3.37,CA,1696218778
471,tonj,7.2737,28.6822,21.8,89,100,0.5,SS,1696218778
472,zhongxiang,31.1661,112.5831,16.3,91,100,5.04,CN,1696218778
473,sarina,-21.4333,149.2167,26.26,5,22,4.94,AU,1696218778
474,korfovskiy,48.2183,135.0564,12.7,90,100,1.91,RU,1696218778
475,qulsary,46.9531,54.0198,17.71,52,91,3.45,KZ,1696218779
476,constitucion,-35.3333,-72.4167,9.44,79,100,2.48,CL,1696218779
477,kapa'a,22.0752,-159.319,28.99,82,40,6.69,US,1696218779
478,villa gesell,-37.2639,-56.973,8.92,85,19,4.22,AR,1696218779
479,sola,-13.8833,167.55,27.37,74,100,5.14,VU,1696218779
480,amahai,-3.3333,128.9167,27.31,78,94,2.01,ID,1696218779
481,zahedan,29.4963,60.8629,19.95,19,0,0.0,IR,1696218780
482,kokpekty,48.75,82.4,12.54,54,50,3.38,KZ,1696218780
483,fortuna,40.5982,-124.1573,12.74,93,100,2.06,US,1696218780
484,chipinge,-20.1883,32.6236,14.15,87,100,3.29,ZW,1696218780
485,uturoa,-16.7333,-151.4333,25.9,82,15,6.76,PF,1696218780
486,bac lieu,9.285,105.7244,27.11,80,100,4.58,VN,1696218780
487,zaysan,47.4667,84.8667,13.38,55,84,1.8,KZ,1696218781
488,chalisgaon,20.4667,75.0167,28.46,59,44,3.02,IN,1696218781
489,vilyuysk,63.7553,121.6247,9.52,72,100,3.08,RU,1696218781
490,karratha,-20.7377,116.8463,33.67,18,0,7.04,AU,1696218781
491,serowe,-22.3833,26.7167,12.67,76,78,8.37,BW,1696218781
492,tot'ma,59.9747,42.7642,9.95,87,99,4.39,RU,1696218781
493,kaga bandoro,6.9896,19.1874,22.04,97,97,0.41,CF,1696218781
494,bonthe,7.5264,-12.505,26.0,87,100,1.71,SL,1696218782
495,djambala,-2.5447,14.7533,20.91,90,68,0.32,CG,1696218782
496,timbuktu,16.7735,-3.0074,33.59,26,100,2.92,ML,1696218782
497,enoch,37.7733,-113.0244,12.14,57,100,3.09,US,1696218782
498,n'zeto,-7.2312,12.8666,23.44,88,82,1.11,AO,1696218782
499,tamanrasset,22.785,5.5228,20.95,28,0,2.06,DZ,1696218783
500,suva,-18.1416,178.4415,24.71,69,75,7.72,FJ,1696218783
501,al muwayh,22.4333,41.7583,25.13,16,0,2.62,SA,1696218783
502,chaiya,9.3862,99.1986,33.58,64,100,1.16,TH,1696218783
503,skrunda,56.6833,22.0167,9.54,96,20,2.33,LV,1696218783
504,zeya,53.75,127.2667,9.38,67,93,0.89,RU,1696218783
505,amalapuram,16.5833,82.0167,28.6,75,100,3.36,IN,1696218784
506,aktau,43.65,51.2,12.32,38,5,4.85,KZ,1696218784
507,hargeysa,9.56,44.065,22.04,63,37,0.9,SO,1696218770
508,mil'kovo,55.6078,37.7956,9.08,73,93,2.71,RU,1696218784
509,owosso,42.9978,-84.1766,17.4,94,0,0.0,US,1696218784
510,fort st. john,56.2499,-120.8529,8.94,66,75,6.69,CA,1696218643
511,shahrak,34.1074,64.3052,9.76,29,0,0.66,AF,1696218785
512,pisco,-13.7,-76.2167,18.34,88,0,7.2,PE,1696218785
513,margherita,27.2833,95.6833,26.3,91,99,1.82,IN,1696218785
514,california,38.3004,-76.5074,18.14,92,0,1.54,US,1696218526
515,ponta delgada,37.7333,-25.6667,20.4,73,20,5.66,PT,1696218785
516,gamba,-2.65,10.0,24.64,89,100,3.42,GA,1696218785
517,eppstein,50.1333,8.4,15.33,84,0,0.51,DE,1696218786
518,albertina,-22.2008,-46.6158,18.11,95,80,0.77,BR,1696218786
519,naklo nad notecia,53.1421,17.6018,14.13,88,79,2.81,PL,1696218786
520,azul,-36.777,-59.8585,6.91,60,9,3.84,AR,1696218786
521,adrar,20.5022,-10.0711,27.97,19,1,1.69,MR,1696218786
522,oamaru,-45.0784,170.9801,8.83,66,42,19.15,NZ,1696218787
523,sombrerete,23.6333,-103.65,15.63,72,100,1.39,MX,1696218787
524,altai,46.3722,96.2583,5.84,57,36,1.62,MN,1696218787
525,sambava,-14.2667,50.1667,22.97,80,17,2.04,MG,1696218787
526,prince george,53.9166,-122.753,8.69,100,100,4.12,CA,1696218787
527,el calafate,-50.3408,-72.2768,2.93,67,56,2.53,AR,1696218787
528,karachi,24.9056,67.0822,28.9,61,14,2.57,PK,1696218497
529,salalah,17.0151,54.0924,25.05,73,20,2.06,OM,1696218788
530,coahuayana de hidalgo,18.7,-103.6583,27.08,94,98,0.65,MX,1696218788
531,hermosillo,29.0667,-110.9667,28.89,45,73,1.34,MX,1696218788
532,sonderborg,54.9093,9.8074,17.16,100,100,2.06,DK,1696218788
533,makurazaki,31.2667,130.3167,23.61,70,95,1.29,JP,1696218788
534,morehead city,34.7229,-76.726,20.55,80,0,2.68,US,1696218489
535,orkney,-26.9802,26.6727,11.53,78,0,3.85,ZA,1696218789
536,castillos,-34.1667,-53.8333,7.35,90,14,1.29,UY,1696218789
537,niemodlin,50.642,17.6193,14.58,90,97,1.54,PL,1696218789
538,turpan,42.9333,89.1667,25.22,24,1,2.0,CN,1696218789
539,sabang,5.8933,95.3214,27.95,77,24,6.19,ID,1696218789
540,kokopo,-4.352,152.2633,28.07,81,65,3.61,PG,1696218790
541,at taj,24.2049,23.2857,24.99,34,100,3.55,LY,1696218790
542,ouesso,1.6136,16.0517,21.29,99,41,0.39,CG,1696218790
543,aioun,16.6614,-9.6149,31.14,15,96,2.21,MR,1696218790
544,saint-pierre,-21.3393,55.4781,25.32,50,0,2.06,RE,1696218790
545,yebaishou,41.3975,119.6408,24.18,19,67,4.98,CN,1696218790
546,castrovillari,39.8203,16.2123,12.38,55,0,1.87,IT,1696218790
547,oroqen zizhiqi,50.5667,123.7167,15.78,38,2,1.76,CN,1696218791
548,san bernardo del viento,9.3533,-75.9524,27.96,86,100,3.75,CO,1696218791
549,ulsteinvik,62.3432,5.8487,13.75,85,100,4.92,NO,1696218791
550,inarajan village,13.2736,144.7484,31.54,86,14,5.76,GU,1696218791
551,kotabumi,-4.8333,104.9,33.8,36,97,3.3,ID,1696218792
552,mugumu,-1.85,34.7,18.01,74,74,1.99,TZ,1696218792
553,bargaal,11.2864,51.0773,27.28,71,64,0.75,SO,1696218792
554,upington,-28.4478,21.2561,15.21,29,0,1.54,ZA,1696218792
555,al hoceima,35.2433,-3.9309,21.57,73,3,1.54,MA,1696218792
556,nueva esperanza,15.2667,-87.6,26.79,99,99,0.92,HN,1696218792
557,mar del plata,-38.0023,-57.5575,11.16,94,20,3.6,AR,1696218792
558,eldorado,-23.7869,-54.2836,19.39,75,80,1.09,BR,1696218684
559,xinqing,48.2333,129.5,12.61,57,70,4.06,CN,1696218793
560,kalabo,-14.97,22.6814,21.38,40,15,0.99,ZM,1696218793
561,timber pines,28.4703,-82.6032,24.94,88,0,4.63,US,1696218793
562,uvira,-3.4067,29.1458,24.98,67,82,0.99,CD,1696218793
563,santa maria,-29.6842,-53.8069,9.61,93,0,0.51,BR,1696218793
564,road town,18.4167,-64.6167,29.05,80,100,7.53,VG,1696218730
565,weyburn,49.6668,-103.8511,12.12,87,100,4.63,CA,1696218621
566,puerto armuelles,8.2833,-82.8667,24.99,94,100,2.24,PA,1696218522
567,wuchang,44.9143,127.15,16.99,46,2,3.92,CN,1696218794
568,clarksville,36.5298,-87.3595,20.74,87,0,2.57,US,1696218718
569,acarau,-2.8856,-40.12,25.22,85,21,5.99,BR,1696218794
570,kuala selangor,3.35,101.25,31.99,66,91,0.73,MY,1696218794
571,richards bay,-28.783,32.0377,16.96,68,92,0.34,ZA,1696218266
572,hueytown,33.4512,-86.9967,23.19,77,0,1.54,US,1696218795
573,lobujya,27.95,86.8167,2.59,98,100,2.42,NP,1696218795
574,inhambane,-23.865,35.3833,20.99,56,75,7.2,MZ,1696218795
575,newman,37.3138,-121.0208,19.13,61,30,0.89,US,1696218795
576,kiama,-34.6833,150.8667,24.1,60,0,5.36,AU,1696218795
577,greymouth,-42.4667,171.2,9.56,83,99,10.28,NZ,1696218511
578,mont-dore,-22.2833,166.5833,26.99,61,55,6.87,NC,1696218796
