,City,Country,Lat,Lng,Humidity,Hotel Name
0,kavieng,PG,-2.5744,150.7967,83,Kavieng Hotel
1,waitangi,NZ,-43.9535,-176.5597,91,Hotel Chathams
2,constantia,RO,44.1833,28.65,54,Hotel Chérica
3,bethel,US,41.3712,-73.414,61,Hampton Inn Danbury
4,jamestown,US,42.097,-79.2353,61,DoubleTree Jamestown
5,princeville,CA,45.7668,-61.2985,60,No hotel found
6,invercargill,NZ,-46.4,168.35,80,The Grand
7,hawaiian paradise park,US,19.5933,-154.9731,88,No hotel found
8,hammerfest,NO,70.6634,23.6821,65,Thon Hotel Hammerfest
9,udachny,RU,66.4167,112.4,92,Вилюй
11,ancud,CL,-41.8697,-73.8203,93,Cabañas
12,nova sintra,CV,14.8667,-24.7167,79,Residência Ka Dencho
13,olonkinbyen,SJ,70.9221,-8.7187,88,No hotel found
14,iskateley,RU,67.6803,53.1512,96,Авантаж
15,franklin,US,39.9667,-83.0166,50,Courtyard Columbus Downtown
16,tidjikja,MR,18.5564,-11.4271,10,No hotel found
17,whitehorse,CA,60.7161,-135.0538,93,Town & Mountain Hotel
18,port alfred,ZA,-33.5906,26.891,78,No hotel found
19,mejit,MH,10.2753,170.8646,79,No hotel found
20,cidreira,BR,-30.1811,-50.2056,59,Hotel Castelo
21,tikhvin,RU,59.6451,33.5294,74,Тихвин
22,georgetown,MY,5.4112,100.3354,81,Page 63 hostel
23,ad dabbah,SD,18.05,30.95,10,No hotel found
24,nizhneangarsk,RU,55.7833,109.55,75,No hotel found
25,port-aux-francais,TF,-49.35,70.2167,97,Keravel
26,santa elena de uairen,VE,4.6167,-61.1333,37,Posada Villa Fairmont
27,bayramaly,TM,37.6185,62.1671,23,No hotel found
28,utrik,MH,11.2278,169.8474,77,No hotel found
29,grytviken,GS,-54.2811,-36.5092,80,No hotel found
30,aleg,MR,17.0481,-13.9209,10,Hotel Oasis Aleg
31,kapa'a,US,22.0752,-159.319,79,Pono Kai Resort
32,sangmelima,CM,2.9333,11.9833,98,Hôtel l'Afamba
33,port blair,IN,11.6667,92.75,89,Andaman Ocean Breeze
34,belmonte,BR,-15.8631,-38.8828,68,No hotel found
35,carnarvon,AU,-24.8667,113.6333,62,No hotel found
36,bredasdorp,ZA,-34.5322,20.0403,81,Victoria Hotel
37,adamstown,PN,-25.066,-130.1015,83,No hotel found
38,edinburgh of the seven seas,SH,-37.0676,-12.3116,61,No hotel found
39,heroica caborca,MX,30.7167,-112.15,30,Hotel Posada del Desierto
40,kisangani,CD,0.5167,25.2,82,Hotel Kisangani
41,yellowknife,CA,62.456,-114.3525,87,No hotel found
42,tsetserleg,MN,47.475,101.4542,64,Буян зочид буудал
43,atafu village,TK,-8.5421,-172.5159,71,No hotel found
44,tazacorte,ES,28.629,-17.9293,81,App Leyma
45,boguchany,RU,58.3814,97.4531,71,Полет
46,kikwit,CD,-5.041,18.8162,85,Grand Hôtel de Kikwit
47,santiago,CL,-33.4569,-70.6483,82,apart arturo prat
48,richards bay,ZA,-28.783,32.0377,63,Bon Hotel Waterfront
49,mount pearl,CA,47.5166,-52.7813,60,Sandman Signature St. John's
50,tralee,IE,52.2704,-9.7026,91,The Ashe Hotel
51,kurchatov,RU,51.6601,35.6521,84,Россия
52,ilulissat,GL,69.2167,-51.1,64,Best Western Plus Hotel Ilulissat
53,port elizabeth,ZA,-33.918,25.5701,78,Waterford Hotel
54,acarau,BR,-2.8856,-40.12,61,No hotel found
55,ribeira grande,PT,38.5167,-28.7,60,Hospedaria JSF
56,pont rouge,CA,48.8833,-72.0825,48,No hotel found
57,tazovsky,RU,67.4667,78.7,88,Тазовчанка
58,alofi,NU,-19.0595,-169.9187,64,Matavai Resort
59,chabahar,IR,25.2919,60.643,60,هتل سپیده
60,albany,US,42.6001,-73.9662,59,No hotel found
61,mizdah,LY,31.4451,12.9801,47,No hotel found
62,port mathurin,MU,-19.6833,63.4167,75,Escale Vacances
63,ushuaia,AR,-54.8,-68.3,93,Apart Hotel Aires del Beagle
64,papao,PF,-17.75,-149.55,84,Hiti Moana Villa Lodge
65,puerto ayora,EC,-0.7393,-90.3518,88,Hostal La Mirada De Solitario George
66,namibe,AO,-15.1961,12.1522,82,Hotel Chik Chik Namibe
67,blackmans bay,AU,-43.0167,147.3167,89,Villa Howden
68,karoi,ZW,-16.8099,29.6925,34,The Champion Lodge
69,cabo san lucas,MX,22.8909,-109.9124,53,Comfort Rooms
70,saipan,MP,15.1355,145.701,94,Chalan Kanoa Beach Hotel
71,zhaogezhuang,CN,39.7667,118.4,40,膳道源商务酒店
72,hasaki,JP,35.7333,140.8333,67,大新旅館
73,zhytkavichy,BY,52.2168,27.8561,72,Чвэрць стагоддзя
74,fort bragg,US,35.139,-79.006,57,Airborne Inn Lodging
75,ban houakhoua,LA,20.2453,100.4547,100,Monethong Hotel
76,vadso,NO,70.0744,29.7487,81,Scandic Vadsø
77,remire-montjoly,GF,4.9167,-52.2667,62,Complexe Belova
78,kayangel,PW,8.0823,134.7173,81,No hotel found
79,college,US,64.8569,-147.8028,70,BEST WESTERN PLUS Pioneer Park Inn
80,whangarei,NZ,-35.7317,174.3239,94,Grand Hotel
81,hermanus,ZA,-34.4187,19.2345,79,Aloe guest house
82,howard springs,AU,-12.497,131.047,82,No hotel found
83,shalkar,KZ,47.8288,59.6258,49,Бекнур
84,dwarka,IN,22.2394,68.9678,80,The Dwarika Hotel
85,st. john's,CA,47.5649,-52.7093,61,Alt Hotel
86,san patricio,US,28.017,-97.5169,62,No hotel found
87,mont-laurier,CA,46.5501,-75.4993,63,Confort Inn
88,vorgashor,RU,67.5833,63.95,98,София
90,uturoa,PF,-16.7333,-151.4333,78,Hawaiki Nui hotel
91,loiza,PR,18.4313,-65.8802,84,"The St. Regis Bahia Beach Resort, Puerto Rico"
92,tofol,FM,5.3248,163.0078,75,Nautilus Resort
93,nabire,ID,-3.3667,135.4833,89,Hotel Anggrek
94,iqaluit,CA,63.7506,-68.5145,75,Frobisher Inn
95,mersa matruh,EG,31.3525,27.2453,57,صقور
96,dudinka,RU,69.4058,86.1778,100,Виктория
97,arkalyk,KZ,50.2486,66.9114,55,"Гостиница ""Арсенал"""
98,codrington,AU,-38.2667,141.9667,92,No hotel found
99,yanchep,AU,-31.55,115.6833,72,Yanchep Inn
100,san antonio de pale,GQ,-1.4014,5.6325,83,No hotel found
101,patong,TH,7.8961,98.2966,76,Thara Patong Beach Resort & Spa
102,sisimiut,GL,66.9395,-53.6735,67,Sømandshjemmet
103,la'ie,US,21.6477,-157.9253,78,No hotel found
104,margaret river,AU,-33.95,115.0667,69,Margaret River Hotel
105,thompson,CA,55.7435,-97.8558,87,Thompson Inn
106,canutama,BR,-6.5339,-64.3831,24,No hotel found
107,prince albert,CA,53.2001,-105.7677,93,No hotel found
108,sungai petani,MY,5.647,100.4877,91,The Jerai Hotel Sungai Petani
109,saint-francois,FR,46.4154,3.9054,72,Chez Lily
110,ternate,ID,0.8,127.4,83,Boulivard ternate
111,palikir - national government center,FM,6.9248,158.1611,100,Mangrove Bay Hotel
112,arraial do cabo,BR,-22.9661,-42.0278,88,No hotel found
113,kingston,JM,17.997,-76.7936,69,Aphrodite Hotel
114,susuman,RU,62.7833,148.1667,92,No hotel found
115,okhotsk,RU,59.3833,143.3,82,No hotel found
116,funafuti,TV,-8.5243,179.1942,76,Vaiaku Lagi Hotel
117,tranas,SE,58.0372,14.9782,88,Hotel Åberg
118,lompoc,US,34.6391,-120.4579,70,Embassy Suites by Hilton Lompoc Central Coast
119,bayanhongor,MN,46.7167,100.1167,91,No hotel found
120,forbes,AU,-33.3833,148.0167,50,No hotel found
121,queenstown,ZA,-31.8976,26.8753,78,Queens Hotel
122,praia da vitoria,PT,38.7333,-27.0667,78,Salles
123,kas,TR,36.2018,29.6377,64,KEKOVA OTEL
124,victorica,AR,-36.2151,-65.4359,17,Hotel Mazamet
125,belyy yar,RU,53.6039,91.3903,81,No hotel found
126,tiksi,RU,71.6872,128.8694,91,Арктика
127,puerto san jose,GT,13.9256,-90.8244,71,Martita
128,turkmenbasy,TM,40.0222,52.9552,39,Türkmenbaşy Oteli
129,lingcheng,CN,22.7072,110.3492,93,No hotel found
130,ketchikan,US,55.3422,-131.6461,93,Cape Fox Lodge
131,hovd,MN,48.0056,91.6419,56,Khovd hotel
132,west island,CC,-12.1568,96.8225,78,Cocos Village Bungalows
133,ankang,CN,32.68,109.0172,95,金友商务酒店
134,bilibino,RU,68.0546,166.4372,89,No hotel found
135,pasni,PK,25.2631,63.471,59,Juddi Hotel
136,puerto baquerizo moreno,EC,-0.9,-89.6,69,Dory's House
137,kodiak,US,57.79,-152.4072,93,Shelikof Lodge
138,lorengau,PG,-2.0226,147.2712,83,Seeadler Bay Hotel
139,barentu,ER,15.1139,37.5928,31,No hotel found
140,manjeshvar,IN,12.7,74.8833,84,No hotel found
141,al wafrah,KW,28.6392,47.9306,17,No hotel found
142,ashland,US,40.8167,-82.2665,70,Quality Inn
143,avarua,CK,-21.2078,-159.775,94,Paradise Inn
144,tezu,IN,27.9167,96.1667,93,No hotel found
145,mingoyo,TZ,-10.1,39.6333,90,Mingoyo hotel
146,puerto natales,CL,-51.7236,-72.4875,100,Dorotea Patagonia Hostel
147,djibouti,DJ,11.5,42.5,54,No hotel found
148,kununurra,AU,-15.7667,128.7333,83,Kununurra Country Club Resort
149,phillip island,AU,-38.4835,145.231,81,Island Breeze Resort
150,bozoum,CF,6.3193,16.3799,93,No hotel found
151,zhumysker,KZ,49.3333,49.4,49,No hotel found
152,swift current,CA,50.2834,-107.8014,100,Days Inn
153,puerto deseado,AR,-47.7503,-65.8938,49,Los Olmos
154,horta,PT,38.5333,-28.6333,75,Azoris Faial Garden - Resort Hotel
155,taoudenni,ML,22.6783,-3.9836,10,No hotel found
156,gazli,UZ,40.1333,63.45,29,No hotel found
157,fale old settlement,TK,-9.3852,-171.2468,74,No hotel found
158,clearlake,US,38.9582,-122.6264,33,Best Western El Grande Inn
159,portland,US,45.5234,-122.6762,68,the Hoxton
160,jutai,BR,-5.1833,-68.9,55,No hotel found
161,nueva gerona,CU,21.8833,-82.8,68,Hotel Bamboo
162,zhangye,CN,38.9342,100.4517,47,Zhangye Hotel 张掖饭店
163,toliara,MG,-23.35,43.6667,79,Ambary
164,longyearbyen,SJ,78.2186,15.6401,58,The Vault
165,ca mau,VN,9.1769,105.15,89,Khách sạn Song Ngọc
166,touros,BR,-5.1989,-35.4608,59,Pousada Atlântico
167,tubarjal,SA,30.4999,38.216,34,No hotel found
168,bouarfa,MA,32.53,-1.95,18,Climat du Maroc مناخ المغرب
169,manokwari,ID,-0.8667,134.0833,80,Hotel Arfak
170,willowmore,ZA,-33.2926,23.4895,62,No hotel found
171,nasiriyah,IQ,31.0521,46.261,18,فندق حمورابي
172,khandyga,RU,62.6667,135.6,83,Апельсин
173,pisco,PE,-13.7,-76.2167,78,La Portada
174,wailua homesteads,US,22.0669,-159.378,79,Hilton Garden Inn Kauai Wailua Bay
175,karratha,AU,-20.7377,116.8463,35,Karratha International Hotel
176,cloquet,US,46.7216,-92.4594,85,AmericInn
177,broome,US,42.2506,-75.833,65,No hotel found
178,sirnak,TR,37.5228,42.4594,74,Hotel Menekse
179,port saint john's,ZA,-31.6229,29.5448,63,Outback Inn
180,murliganj,IN,25.9,86.9833,94,No hotel found
181,gilgit,PK,35.9221,74.3087,36,PTDC Motel
182,santana,BR,-0.0583,-51.1817,55,Hotel Teodoro
183,talnakh,RU,69.4865,88.3972,92,Талнах
184,nar'yan-mar,RU,67.6713,53.087,96,"Гостиница ""Агат"""
185,manadhoo,MV,5.7667,73.3833,79,Iru fushi beach & spa resort
186,salvador,SV,13.8333,-88.9167,66,No hotel found
187,moires,GR,35.0532,24.8744,44,Hotel Olympic
188,lata,PT,40.1629,-8.3327,59,Residencial Botânico
189,matoury,GF,4.8483,-52.3317,62,La Marmotte
190,revda,RU,56.801,59.9303,82,Металлург
191,mountain home,US,43.133,-115.6912,95,Best Western Foothills Inn
192,shigony,RU,53.3875,48.6777,61,No hotel found
193,villa de soto,AR,-30.8552,-64.9995,23,La Eleida
194,letlhakane,BW,-21.4167,25.5833,17,Boteti Hotel
195,lebu,CL,-37.6167,-73.65,67,No hotel found
196,katsuura,JP,35.1333,140.3,73,潮騒の宿
197,bucerias,MX,20.75,-105.3333,68,Royal Decameron Complex
198,situbondo,ID,-7.7062,114.0098,62,MogaSari
199,anadyr,RU,64.75,177.4833,93,Гостевой дом
200,beira,MZ,-19.8436,34.8389,88,Hotel Savoy
201,badger,US,64.8,-147.5333,69,Hotel North Pole
202,haiku-pauwela,US,20.9219,-156.3051,66,Inn At Mama's Fish House
203,hadibu,YE,12.65,54.0333,85,No hotel found
204,enewetak,MH,11.3474,162.3373,75,No hotel found
205,klyuchi,RU,52.2667,79.1667,87,No hotel found
206,ola,RU,59.5833,151.2833,87,No hotel found
207,olovyannaya,RU,50.95,115.5667,54,No hotel found
208,vikulovo,RU,56.8167,70.6107,94,"OOO ""СИСТЕМА СТРОЙ"""
209,mbekenyera,TZ,-10.0,38.9833,82,No hotel found
210,thunder bay,CA,48.4001,-89.3168,100,Hampton Inn & Suites by Hilton Thunder Bay
211,pacific grove,US,36.6177,-121.9166,79,Pacific Grove Inn
212,qaqortoq,GL,60.7167,-46.0333,82,Hotel Qaqortoq
213,slave lake,CA,55.2834,-114.769,58,Northwest Inn
214,venray,NL,51.5167,5.9667,83,Hotel Hulsman
215,tolanaro,MG,-25.0319,46.9987,65,Hôtel Mahavokey
216,isafjordur,IS,66.0755,-23.124,71,Hótel Horn
217,meadow lake,US,34.8014,-106.5436,27,No hotel found
218,coquimbo,CL,-29.9533,-71.3436,77,Hotel Iberia
219,ivanec,HR,46.2231,16.12,81,No hotel found
220,la ronge,CA,55.1001,-105.2842,81,La Ronge Hotel and Suites
221,nuuk,GL,64.1835,-51.7216,80,Nordbo
222,hamilton,US,39.1834,-84.5333,54,North Vista Manor
223,springbok,ZA,-29.6643,17.8865,28,Elkoweru Guesthouse
224,freeport,US,40.6576,-73.5832,58,The Freeport Inn and Marina
225,knyaze-volkonskoye,RU,48.4642,135.4567,95,No hotel found
226,naranjos,MX,21.35,-97.6833,44,San Angel
227,stanley,GB,54.868,-1.6985,88,Hotel 52
228,calipatria,US,33.1256,-115.5142,36,No hotel found
229,yaren,NR,-0.5472,166.916,76,Aiwo Hotel
230,kerikeri,NZ,-35.2268,173.9474,92,Avalon Resort
231,ujae,MH,8.9322,165.7642,76,No hotel found
232,clarksville,US,36.5298,-87.3595,49,Riverview Inn
233,copala,MX,16.65,-98.9833,62,No hotel found
234,kvissleby,SE,62.2936,17.375,77,Hotell Aina
235,ust-nera,RU,64.5667,143.2,62,"гостиница ""Солнечная"""
236,salavan,LA,15.7167,106.4167,98,Phengthavixay
237,sierra grande,AR,-41.606,-65.3557,23,Sierra Grande
238,kristiansund,NO,63.1115,7.732,93,Comfort Hotel Fosna
239,papatowai,NZ,-46.5619,169.4708,71,No hotel found
240,fortuna,US,40.5982,-124.1573,73,Comfort Inn & Suites Redwood Country
241,lihue,US,21.9789,-159.3672,79,Kauai Palms
242,kourou,GF,5.1552,-52.6478,65,SCI Horizon
243,kuusamo,FI,65.9667,29.1833,100,Holiday Club Kuusamon Tropiikki
244,bandar lampung,ID,-5.4254,105.258,91,Grand Anugerah
245,sabang,ID,5.8933,95.3214,78,Sabang Hill
246,ha'il,SA,27.5219,41.6907,18,فندق كلاسيك
247,east london,ZA,-33.0153,27.9116,67,No hotel found
248,stettler,CA,52.3168,-112.7186,93,Heartland Lodge
249,greymouth,NZ,-42.4667,171.2,97,Recreation Hotel
250,lisakovsk,KZ,52.5369,62.4936,69,Оолит
251,saudarkrokur,IS,65.7461,-19.6394,81,Mikligarður
252,kodinsk,RU,58.6881,99.1844,82,Ангара
253,prado,BR,-17.3411,-39.2208,69,Pousada Recanto do Prado
254,sydney mines,CA,46.2367,-60.2177,59,No hotel found
255,novouzensk,RU,50.4592,48.1431,48,No hotel found
256,ormara,PK,25.2088,64.6357,44,No hotel found
257,yelizovo,RU,53.1873,158.3805,97,Николина Усадьба
258,dulce grande,MX,23.0,-102.1667,25,No hotel found
259,sabzevar,IR,36.2126,57.6819,19,مامورسرا مخابرات سبزوار
260,winnipeg,CA,49.8844,-97.147,78,Best Western Plus Downtown Winnipeg
261,monrovia,LR,6.3005,-10.7969,84,Bella Casa Hotel
262,tommot,RU,58.9564,126.2925,72,Томмот
263,antonio enes,MZ,-16.2325,39.9086,80,Hotel Quirimbas
264,sidi bel abbes,DZ,35.1899,-0.6309,37,hotel palace
265,pak phanang,TH,8.3511,100.202,78,Pak Phanang Hotel
266,happy valley-goose bay,CA,53.3168,-60.3315,47,Hotel North Two
267,rongelap,MH,11.1635,166.8941,79,No hotel found
268,pangody,RU,65.85,74.4859,100,Газпром энерго
269,serro,BR,-18.6047,-43.3794,39,No hotel found
270,quellon,CL,-43.1167,-73.6167,76,Aliwen
271,port-vila,VU,-17.7338,168.3219,73,Holiday Inn Resort Vanuatu
272,kakunodatemachi,JP,39.5833,140.5667,86,田町武家屋敷ホテル
273,vilyuchinsk,RU,52.9306,158.4028,82,Победа
274,petropavlovsk-kamchatsky,RU,53.0452,158.6483,100,ООО Постоялый двор
275,santa pola,ES,38.1917,-0.5658,67,Quatre Llunes
276,sretensk,RU,52.2453,117.7093,80,No hotel found
277,toyooka,JP,35.5333,134.8333,72,ビジネスイン全但
278,kapuskasing,CA,49.4169,-82.4331,77,Travelodge
279,parfino,RU,57.9731,31.6481,85,No hotel found
280,luau,AO,-10.7073,22.2247,46,No hotel found
281,aswan,EG,24.0934,32.907,24,Yaseen hotel
282,alliance,US,40.9153,-81.1059,61,Hampton Inn
283,saint-philippe,RE,-21.3585,55.7679,74,Le Baril
284,santa eularia des riu,ES,38.9846,1.5341,73,Hostal Sa Rota
285,punta arenas,CL,-53.15,-70.9167,60,Hotel Lacolet
286,port augusta,AU,-32.5,137.7667,61,Hotel Commonwealth
287,gadzhiyevo,RU,69.2551,33.3362,80,Оазис
288,taulaga,AS,-11.0553,-171.0883,81,No hotel found
289,gornozavodsk,RU,58.3758,58.3211,73,Урал
290,macapa,BR,0.0389,-51.0664,55,Equatorial Hotel
291,puerto leguizamo,CO,-0.1934,-74.7819,57,Hotel Girasoles
292,urengoy,RU,65.9667,78.3667,99,Геолог
293,colonia,DE,50.9333,6.95,72,Wasserturm Hotel Cologne
294,lae,PG,-6.7221,146.9847,90,Huon Gulf Hotel
295,shimoda,JP,34.6667,138.95,79,ホテルウラガ
296,yarmouth,US,41.7057,-70.2286,80,The Inn At Cape Cod
297,hilo,US,19.7297,-155.09,81,Dolphin Bay Hotel
298,byron bay,AU,-28.65,153.6167,83,Lord Byron Resort
299,strathmore,CA,51.0501,-113.3852,81,Days Inn & Suites
300,finneytown,US,39.2003,-84.5205,53,North Vista Manor
301,cole harbour,CA,44.6724,-63.4751,74,Hearthstone Inn Boutique Hotel Dartmouth/Halifax
302,kavaratti,IN,10.5669,72.642,81,No hotel found
303,mariehamn,AX,60.0973,19.9348,100,Hotell Esplanad
304,arno,SE,60.1167,18.6333,81,Pensionat Grisslehamns
305,labytnangi,RU,66.6572,66.4183,98,Семь лиственниц
306,atherton,GB,53.5237,-2.4935,93,Britannia Hotel
307,nadi,FJ,-17.8,177.4167,60,President Hotel
308,sandnessjoen,NO,66.0217,12.6316,93,Scandic Syv Søstre
309,bamboo flat,IN,11.7,92.7167,89,Hotel Megapode Nest
311,brookings,US,44.3114,-96.7984,48,Quality Inn
312,lodeynoye pole,RU,60.726,33.5531,92,Лодейка
313,mabaruma,GY,8.2,-59.7833,49,Monty Brooms Hotel
314,lulea,SE,65.5842,22.1547,87,Clarion Hotel Sense
315,nemuro,JP,43.3236,145.575,82,イーストハーバーホテル
316,mantua,IT,45.1667,10.7833,73,No hotel found
317,sri dungargarh,IN,28.0833,74.0167,18,Gopal Hotel
318,rawlins,US,41.7911,-107.2387,28,Quality Inn Rawlins I-80
319,souillac,MU,-20.5167,57.5167,83,Hotel SkylineInn
320,cortez,US,37.3489,-108.5859,25,BEST WESTERN Turquoise Inn & Suites
321,irymple,AU,-34.25,142.1667,60,Chaffey Motor Inn
322,eyl,SO,7.9803,49.8164,78,فندق ايل دابي
323,swanage,GB,50.6092,-1.9626,91,The Castleton Hotel
324,hithadhoo,MV,-0.6,73.0833,73,Pebbles Inn
325,palmer,US,42.1584,-72.3287,55,No hotel found
326,sorong,ID,-0.8833,131.25,85,Hotel Membramo Marina
327,yorkton,CA,51.2167,-102.4677,88,Ramada Yorkton
328,dean funes,AR,-30.4204,-64.3498,23,Hospedaje Meli
329,kendari,ID,-3.945,122.4989,94,City Hotel Kendari
330,akureyri,IS,65.6835,-18.0878,71,Hótel Norðurland
331,nantucket,US,41.2835,-70.0995,83,No hotel found
332,menongue,AO,-14.6585,17.691,23,No hotel found
333,flying fish cove,CX,-10.4217,105.6791,88,Christmas Island Lodge
334,roma,US,43.2128,-75.4557,71,Wingate by Wyndham Rome
335,krasnogvardeyskoye,RU,45.8456,41.5186,40,No hotel found
336,mil'kovo,RU,55.6078,37.7956,74,Дрозды
337,tres lagoas,BR,-20.7511,-51.6783,38,Hotel Sul
338,puerto aysen,CL,-45.4,-72.7,83,Hostal Dendal
339,aneho,TG,6.2333,1.6,83,Mater Christi
340,kimovsk,RU,53.9716,38.5319,86,No hotel found
341,yesilova,TR,37.5081,29.7547,81,Kural Apart
342,mount isa,AU,-20.7333,139.5,51,Ibis Styles
343,santiago de cao,PE,-7.9589,-79.2392,68,Hostal El Encanto
344,boende,CD,-0.2167,20.8667,82,Hotel Reference
345,cannonvale,AU,-20.2833,148.7,85,Whitsundays Rainforest Retreat
346,saint augustine beach,US,29.8505,-81.2654,94,Castillo Real Resort Hotel
347,paracuru,BR,-3.41,-39.0306,57,Vento Brasil
348,palu,ID,-0.8917,119.8707,95,Ujung Pandang Hotel
349,aykhal,RU,66.0,111.5,98,Уют
350,la sarre,CA,48.8002,-79.1996,47,No hotel found
351,bubaque,GW,11.2833,-15.8333,79,Chez Julio
352,zheleznodorozhnyy,RU,55.7503,38.0042,77,No hotel found
353,n'zeto,AO,-7.2312,12.8666,84,No hotel found
354,nizhnesortymskiy,RU,62.4397,71.7603,88,Нижнесортымский
355,laascaanood,SO,8.4774,47.3597,44,Warsame Hotel mnesta
356,shancheng,CN,34.7953,116.0817,62,如家酒店
357,meknes,MA,33.9776,-5.525,30,Hotel Swani
358,zastron,ZA,-30.3023,27.084,32,No hotel found
359,majholi,IN,23.5,79.9167,76,No hotel found
360,yima,CN,34.7381,111.8839,88,No hotel found
361,afaahiti,PF,-17.75,-149.2833,86,Omati Lodge
362,kone,NC,-21.0595,164.8658,83,Pacifik Appartels
363,maribo,DK,54.7766,11.5002,95,Hotel Søpark
364,frankfurt (oder),DE,52.3471,14.5506,73,Oderblick
365,moundou,TD,8.5667,16.0833,79,فندق جمرا
366,beyneu,KZ,45.3167,55.2,43,Johan yu
367,wad az zaki,SD,14.4619,32.2065,29,No hotel found
369,selfoss,IS,63.9331,-20.9971,67,Miðgarður
370,belle glade,US,26.6845,-80.6676,73,No hotel found
371,piti village,GU,13.4626,144.6933,90,The Cliff Hotel
372,joao pinheiro,BR,-17.7425,-46.1725,29,Lícia
373,callao,PE,-12.0667,-77.15,64,Casa Ronald
374,ghormach,AF,35.7306,63.7826,24,No hotel found
375,zhoukou,CN,33.6333,114.6333,91,No hotel found
376,kulhudhuffushi,MV,6.6221,73.07,78,No hotel found
377,ghat,LY,24.9647,10.1728,30,فندق تاسيلي
378,sittwe,MM,20.15,92.9,91,Yuzana Aung Motel 1
379,usogorsk,RU,63.4106,48.6872,92,Единственная
380,daru,PG,-9.0763,143.2092,89,Kuki
381,korla,CN,41.7597,86.1469,31,Silver Star Hotel
382,keren,ER,15.7778,38.4581,29,Eritrea Hotel قندق إرتريا
383,muromtsevo,RU,56.3724,75.2418,80,Серебряный берег
384,airway heights,US,47.6446,-117.5933,46,Days Inn and Suites Airway Heights
385,christchurch,NZ,-43.5333,172.6333,58,Ibis Hotel Christchurch
386,kuraymah,SD,18.55,31.85,12,Hotel al Nasser
387,urangan,AU,-25.3,152.9,67,Ramada
388,sarangani,PH,5.4033,125.4636,76,No hotel found
389,banda aceh,ID,5.5577,95.3222,84,Hotel 61
390,uchiza,PE,-8.4592,-76.4633,34,No hotel found
391,malango,ID,-2.9627,119.9001,98,Madarana
392,parral,MX,26.9333,-105.6667,25,Hotel Adriana
393,mansa,IN,29.9833,75.3833,25,No hotel found
394,castillos,UY,-34.1667,-53.8333,58,A mi gente
395,sovetskaya gavan',RU,48.9723,140.2878,83,Гостинный Двор
396,marsabit,KE,2.3284,37.9899,44,Chicho Hotel
397,pyt-yakh,RU,60.7499,72.8582,89,Сибирь
398,punta del este,UY,-34.9667,-54.95,77,Hotel Aquarium
399,el calafate,AR,-50.3408,-72.2768,50,Hostería Las Avutardas
400,kruisfontein,ZA,-34.0033,24.7314,75,No hotel found
401,florence,IT,43.7667,11.25,43,Old bridge Apartment
402,andreas,IM,54.3667,-4.4333,82,Brightlife
403,chiang mai,TH,18.75,99.0,94,Wiang Kum Kam Resort
404,albertina,BR,-22.2008,-46.6158,89,Hotel Parque das Primaveras
405,kill devil hills,US,36.0307,-75.676,68,Mariner Days Inn & Suites
406,mungwi,ZM,-10.1732,31.3694,24,No hotel found
407,jeremie,HT,18.65,-74.1167,73,Delivrance Hotel
408,svetlograd,RU,45.3353,42.8547,40,Центральная гостиница Светлограда
409,gabarin,NG,11.1093,10.4441,84,No hotel found
410,warrnambool,AU,-38.3833,142.4833,88,Central Court
411,rikaze,CN,29.25,88.8833,52,Gesar Hotel
412,kamyshevatskaya,RU,46.4132,37.9563,51,No hotel found
413,mount gambier,AU,-37.8333,140.7667,93,The Old Mount Gambier Gaol
414,begamganj,IN,23.6,78.3333,61,No hotel found
415,rio grande,BR,-32.035,-52.0986,67,Hotel Vila Moura Executivo
416,bramhall,GB,53.358,-2.1654,91,Deanwater
417,butte,US,39.6499,-121.5677,61,No hotel found
418,chui,UY,-33.6971,-53.4616,64,Alerces
419,chimbarongo,CL,-34.7,-71.05,68,Hotel Central
420,campbell river,CA,50.0163,-125.2446,67,Comfort Inn & Suites
421,tamanrasset,DZ,22.785,5.5228,22,فندق الأمان
422,nuku'alofa,TO,-21.1333,-175.2,64,City Hotel
423,bonthe,SL,7.5264,-12.505,84,No hotel found
424,san luis de la loma,MX,17.2706,-100.8939,70,No hotel found
425,kimbe,PG,-5.5502,150.1429,92,Kimbe Bay Hotel
426,rawson,AR,-43.3002,-65.1023,30,Hotel Deportivo
427,horodok,UA,49.1637,26.5839,63,Європа
428,labrador city,CA,52.9463,-66.9114,54,Carol Inn
429,vizinga,RU,61.0749,50.1031,94,Надежда
430,namsos,NO,64.4662,11.4957,93,Tinos hotell
431,gangolli,IN,13.65,74.6667,86,Ganesh Hotel (Nanda)
432,bontang,ID,0.1333,117.5,88,Hotel Sederhana
433,colonia menno,PY,-22.3667,-59.8167,29,Hotel Mora
434,togur,RU,58.3631,82.8265,71,Визит
435,lautoka,FJ,-17.6167,177.4667,60,Cathay Hotel
436,murzuq,LY,25.9155,13.9184,31,فندق باريس - مرزق
437,agnita,RO,45.9667,24.6167,50,Agramonia
438,zheleznogorsk-ilimskiy,RU,56.5768,104.1217,91,Магнетит
439,rawatbhata,IN,24.9333,75.5833,39,No hotel found
440,cam ranh,VN,11.9214,109.1591,94,Khách sạn Thái Bình
441,abadeh,IR,31.1608,52.6506,19,No hotel found
442,crane,US,31.3974,-102.3501,40,No hotel found
443,kovalam,IN,8.3667,76.9967,83,Agastya Ayurveda Hotel
444,el amria,DZ,35.5244,-1.0158,48,No hotel found
445,new norfolk,AU,-42.7826,147.0587,96,Woodbridge on the Derwent
446,khabarovsk,RU,48.4808,135.0928,93,Аврора
447,manavgat,TR,36.7867,31.4431,67,Hotel Sazak
448,severoural'sk,RU,60.1533,59.952,69,"""Кумба"""
449,bacchus marsh,AU,-37.6727,144.4383,83,Court House Hotel
450,harper,LR,4.375,-7.7169,88,No hotel found
451,bel ombre,SC,-4.6167,55.4167,83,Villa La Cachette
452,yuzhno-kurilsk,RU,44.0306,145.8556,91,Dom Druzhby
453,masterton,NZ,-40.9597,175.6575,75,Copthorne Hotel Solway Park
454,chonchi,CL,-42.6128,-73.8092,97,Hotel Huildín
455,moeiwadi,TH,16.3894,104.1572,93,No hotel found
456,sinabang,ID,2.4803,96.3801,87,No hotel found
457,plainview,US,40.7765,-73.4673,61,Residence Inn by Marriott
458,vodnyy,RU,63.5046,53.4095,94,No hotel found
459,wao,PH,7.6833,124.6833,88,No hotel found
460,devrekani,TR,41.603,33.8392,94,No hotel found
461,bumba,CD,2.1833,22.4667,87,Hotel Bumba
462,fort st. john,CA,56.2499,-120.8529,50,Fort St. John Motor Inn
463,puruliya,IN,23.3333,86.3667,94,No hotel found
464,itoman,JP,26.1247,127.6694,91,No hotel found
465,lhasa,CN,29.65,91.1,72,Shangri-la Hotel Lhasa
466,xam nua,LA,20.4197,104.0439,100,Phetmeuangsam Hotel
467,el porvenir,HN,13.7617,-87.3458,54,No hotel found
468,north bondi,AU,-33.8824,151.2769,73,Beach Road Hotel
469,yong peng,MY,2.0136,103.0659,85,H3 Hotel
470,alappuzha,IN,9.49,76.3264,86,Unnis Hotel
471,birao,CF,10.2849,22.7882,75,No hotel found
472,hassi messaoud,DZ,31.6804,6.0729,30,AMC
473,waingapu,ID,-9.6567,120.2641,85,HOTEL SANDLEWOOD
474,prince rupert,CA,54.3161,-130.3201,92,Crest Hotel
475,holualoa,US,19.6228,-155.9522,71,Kona Hotel
476,ambajogai,IN,18.7333,76.3833,84,No hotel found
477,manicore,BR,-5.8092,-61.3003,44,No hotel found
478,coahuayana de hidalgo,MX,18.7,-103.6583,65,No hotel found
479,turkestan,KZ,43.3333,68.25,41,Атамекен
480,ciudad bolivar,VE,8.1222,-63.5497,40,Paoca
481,key west,US,24.5557,-81.7826,77,Harborside Hotel & Marina
482,yulinshi,CN,38.2906,109.7494,81,榆溪大酒店
483,bandarbeyla,SO,9.4942,50.8122,86,No hotel found
484,kharp,RU,66.8014,65.8081,99,Собь
485,el matama,SD,16.7095,33.3565,16,الكوثر
486,nalut,LY,30.3333,10.85,32,No hotel found
487,hantsavichy,BY,52.758,26.43,67,Журавушка
488,vernon,CA,50.2581,-119.2691,76,Okanagan Royal Park Inn
489,lashio,MM,22.9333,97.75,99,Golden Kaniri Hotel
490,shache,CN,38.4167,77.2406,27,莎車新盛賓舘
491,douentza,ML,14.9951,-2.9517,19,No hotel found
492,grand-bourg,GP,15.8835,-61.3148,72,Coco Beach Resort
493,tarko-sale,RU,64.9225,77.785,100,Вынгапур
494,yokadouma,CM,3.5167,15.05,96,Hotel elephant
495,livingston,GB,55.9029,-3.5226,77,Livingston Lodge Hotel
496,sumbe,AO,-11.2061,13.8437,84,No hotel found
497,kenai,US,60.5544,-151.2583,89,Beluga Lookout Hotel
498,san martin,AR,-33.081,-68.4681,17,Hotel Lacava
499,bereznik,RU,62.8551,42.7072,90,Отель Прибрежный
500,tamiahua,MX,21.2667,-97.45,52,No hotel found
501,plettenberg bay,ZA,-34.0527,23.3716,83,Milkwood Manor
502,jenks,US,36.0229,-95.9683,42,Holiday Inn Express Hotel & Suites
503,coxen hole,HN,16.3244,-86.5366,74,Elizabeth Inn
504,anonang,PH,11.0,124.0333,87,sea turtle lagon
505,khanty-mansiysk,RU,61.0042,69.0019,93,Гамма
506,quang ngai,VN,15.1167,108.8,92,Ngoc Anh
507,barra do garcas,BR,-15.89,-52.2567,36,Pousada Portal
508,tsiombe,MG,-25.3,45.4833,81,No hotel found
509,bodo,NO,67.28,14.405,89,Zefyr hotell
510,phek,IN,25.6667,94.5,99,No hotel found
511,aasiaat,GL,68.7098,-52.8699,74,SØMA
512,lithgow,AU,-33.4833,150.15,96,Grand Central Hotel
513,saynshand,MN,44.8824,110.1163,21,No hotel found
514,talata mafara,NG,12.5732,6.0597,55,No hotel found
515,jiexiu,CN,37.0244,111.9125,54,友谊宾馆
516,osvaldo cruz,BR,-21.7967,-50.8786,39,No hotel found
517,chaihe,CN,44.7667,129.7,90,No hotel found
518,kalmunai,LK,7.4167,81.8167,86,Saji new food
519,turpan,CN,42.9333,89.1667,30,Oriental
520,igarka,RU,67.4667,86.5833,69,Заполярье
521,lazaro cardenas,MX,17.9583,-102.2,68,Hotel Sol del Pacífico
522,kungur,RU,57.4368,56.9593,70,Ирень
523,broken hill,AU,-31.95,141.4333,40,Ibis Styles
524,la passe,FR,45.5549,-0.8967,54,L'Estuaire
525,divnogorsk,RU,55.9594,92.3619,80,Спорт-отель Дивный
526,jalai nur,CN,49.45,117.7,57,满洲里福门客栈
527,beroroha,MG,-21.6667,45.1667,46,No hotel found
528,nyurba,RU,63.2842,118.3319,81,Марина
529,saldanha,ZA,-33.0117,17.9442,74,Hoedjesbaai
530,xifeng,CN,42.7372,124.7222,51,No hotel found
531,prince george,CA,53.9166,-122.753,75,Travelodge by Wyndham Prince George
532,misliyah,SA,17.4599,42.5572,61,No hotel found
533,banfora,BF,10.6333,-4.7667,72,Hotel-Calypso
534,al jawf,SA,29.5,38.75,17,No hotel found
535,horqueta,PY,-23.3428,-57.0597,27,No hotel found
536,xunchang,CN,28.4543,104.715,95,No hotel found
537,port antonio,JM,18.18,-76.4612,75,No hotel found
538,tindouf,DZ,27.6711,-8.1474,11,محمد بوسبي
539,korfez,TR,40.7767,29.7297,100,Gümüşel
540,zalari,RU,53.5584,102.5065,78,No hotel found
541,belize city,BZ,17.4995,-88.1976,74,Best Time Inn - Hotel Car Rental
542,trujillo,PE,-8.116,-79.03,68,Hostal Ayacucho
543,sinop,TR,41.7711,34.8709,91,No hotel found
544,sendhwa,IN,21.6833,75.1,60,No hotel found
545,cromer,GB,52.9312,1.2989,88,Hotel de Paris
546,alice springs,AU,-23.7,133.8833,18,Aurora Alice Springs
547,el tigre,VE,8.8875,-64.2454,48,Hotel La Llovizna
548,bikin,RU,46.8161,134.26,93,Эльдорадо
549,chongwe,ZM,-15.3292,28.682,33,No hotel found
550,chiredzi,ZW,-21.05,31.6667,58,Nesbitt Arms Hotel
551,penzance,GB,50.1186,-5.5371,93,The Abbey Hotel
552,carauari,BR,-4.8828,-66.8958,48,No hotel found
553,alesund,NO,62.4723,6.1549,87,Brosundet
554,santa rosalia,MX,27.3167,-112.2833,37,Sol y Mar
555,blackwater,AU,-23.5833,148.8833,100,No hotel found
556,minas de marcona,PE,-15.2119,-75.1103,63,No hotel found
557,nikolayevsk-on-amure,RU,53.1406,140.73,98,Север
558,grand falls-windsor,CA,48.9332,-55.6649,56,Hotel Robin Hood
559,yashkul',RU,46.1711,45.3435,48,No hotel found
560,lamu,KE,-2.2717,40.902,75,Hotel Archipelago villa bed and breakfast
561,sinjai,ID,-5.1241,120.253,86,Hotel Sinjai
562,nagqu,CN,31.5,92.0,98,Naqu Hotel
563,senador jose porfirio,BR,-2.5908,-51.9542,37,No hotel found
564,were ilu,ET,10.6,39.4333,61,No hotel found
565,mulayjah,SA,27.271,48.4242,23,No hotel found
566,sharhorod,UA,48.7383,28.085,60,No hotel found
567,port lincoln,AU,-34.7333,135.8667,81,Boston Hotel
568,tateyama,JP,34.9833,139.8667,74,No hotel found
569,telimele,GN,10.9167,-13.3333,87,No hotel found
570,sault ste. marie,CA,46.5168,-84.3333,90,Holiday Inn
